{
  "type": "FeatureCollection",
  "features": [
    {
      "type": "Feature",
      "properties": {
        "name": "Notre-Dame de Paris",
        "style": "Gothic",
        "year_built": "1163–1345",
        "architect": "Unknown",
        "description": "Gothic building constructed in 1163–1345."
      },
      "geometry": {
        "type": "Point",
        "coordinates": [
          2.349902,
          48.852968
        ]
      }
    },
    {
      "type": "Feature",
      "properties": {
        "name": "Sainte-Chapelle",
        "style": "Gothic",
        "year_built": "1242–1248",
        "architect": "Unknown",
        "description": "Gothic building constructed in 1242–1248."
      },
      "geometry": {
        "type": "Point",
        "coordinates": [
          2.34483,
          48.855358
        ]
      }
    },
    {
      "type": "Feature",
      "properties": {
        "name": "Saint-Eustache Church",
        "style": "Gothic",
        "year_built": "1532–1632",
        "architect": "Unknown",
        "description": "Gothic building constructed in 1532–1632."
      },
      "geometry": {
        "type": "Point",
        "coordinates": [
          2.3475,
          48.8625
        ]
      }
    },
    {
      "type": "Feature",
      "properties": {
        "name": "Saint-Julien-le-Pauvre",
        "style": "Gothic",
        "year_built": "13th century",
        "architect": "Unknown",
        "description": "Gothic building constructed in 13th century."
      },
      "geometry": {
        "type": "Point",
        "coordinates": [
          2.3497,
          48.8514
        ]
      }
    },
    {
      "type": "Feature",
      "properties": {
        "name": "Saint-Nicolas-des-Champs",
        "style": "Gothic",
        "year_built": "15th–17th centuries",
        "architect": "Unknown",
        "description": "Gothic building constructed in 15th–17th centuries."
      },
      "geometry": {
        "type": "Point",
        "coordinates": [
          2.3578,
          48.8706
        ]
      }
    },
    {
      "type": "Feature",
      "properties": {
        "name": "Basilica of Saint-Denis",
        "style": "Gothic",
        "year_built": "1135–1144",
        "architect": "Unknown",
        "description": "Gothic building constructed in 1135–1144."
      },
      "geometry": {
        "type": "Point",
        "coordinates": [
          2.3599,
          48.9359
        ]
      }
    },
    {
      "type": "Feature",
      "properties": {
        "name": "Saint-Médard Church",
        "style": "Gothic",
        "year_built": "15th century",
        "architect": "Unknown",
        "description": "Gothic building constructed in 15th century."
      },
      "geometry": {
        "type": "Point",
        "coordinates": [
          2.3514,
          48.8389
        ]
      }
    },
    {
      "type": "Feature",
      "properties": {
        "name": "Tour Saint-Jacques",
        "style": "Gothic",
        "year_built": "1509–1523",
        "architect": "Unknown",
        "description": "Gothic building constructed in 1509–1523."
      },
      "geometry": {
        "type": "Point",
        "coordinates": [
          2.3499,
          48.8575
        ]
      }
    },
    {
      "type": "Feature",
      "properties": {
        "name": "Saint-Germain l'Auxerrois",
        "style": "Gothic",
        "year_built": "12th–15th centuries",
        "architect": "Unknown",
        "description": "Gothic building constructed in 12th–15th centuries."
      },
      "geometry": {
        "type": "Point",
        "coordinates": [
          2.3411,
          48.8593
        ]
      }
    },
    {
      "type": "Feature",
      "properties": {
        "name": "Saint-Laurent Church",
        "style": "Gothic",
        "year_built": "15th century",
        "architect": "Unknown",
        "description": "Gothic building constructed in 15th century."
      },
      "geometry": {
        "type": "Point",
        "coordinates": [
          2.3583,
          48.875
        ]
      }
    },
    {
      "type": "Feature",
      "properties": {
        "name": "Lescot Wing of the Louvre",
        "style": "Renaissance",
        "year_built": "1546–1553",
        "architect": "Unknown",
        "description": "Renaissance building constructed in 1546–1553."
      },
      "geometry": {
        "type": "Point",
        "coordinates": [
          2.3376,
          48.8606
        ]
      }
    },
    {
      "type": "Feature",
      "properties": {
        "name": "Hôtel Carnavalet",
        "style": "Renaissance",
        "year_built": "1548–1560",
        "architect": "Unknown",
        "description": "Renaissance building constructed in 1548–1560."
      },
      "geometry": {
        "type": "Point",
        "coordinates": [
          2.3621,
          48.8575
        ]
      }
    },
    {
      "type": "Feature",
      "properties": {
        "name": "Hôtel de Ville (City Hall)",
        "style": "Renaissance",
        "year_built": "1533–1628",
        "architect": "Unknown",
        "description": "Renaissance building constructed in 1533–1628."
      },
      "geometry": {
        "type": "Point",
        "coordinates": [
          2.3522,
          48.8566
        ]
      }
    },
    {
      "type": "Feature",
      "properties": {
        "name": "Pont Neuf",
        "style": "Renaissance",
        "year_built": "1578–1607",
        "architect": "Unknown",
        "description": "Renaissance building constructed in 1578–1607."
      },
      "geometry": {
        "type": "Point",
        "coordinates": [
          2.3419,
          48.857
        ]
      }
    },
    {
      "type": "Feature",
      "properties": {
        "name": "Hôtel de Sens",
        "style": "Renaissance",
        "year_built": "1475–1519",
        "architect": "Unknown",
        "description": "Renaissance building constructed in 1475–1519."
      },
      "geometry": {
        "type": "Point",
        "coordinates": [
          2.3585,
          48.8546
        ]
      }
    },
    {
      "type": "Feature",
      "properties": {
        "name": "Hôtel de Lamoignon",
        "style": "Renaissance",
        "year_built": 1584,
        "architect": "Unknown",
        "description": "Renaissance building constructed in 1584."
      },
      "geometry": {
        "type": "Point",
        "coordinates": [
          2.3629,
          48.8571
        ]
      }
    },
    {
      "type": "Feature",
      "properties": {
        "name": "Hôtel de Sully",
        "style": "Renaissance",
        "year_built": "1624–1630",
        "architect": "Unknown",
        "description": "Renaissance building constructed in 1624–1630."
      },
      "geometry": {
        "type": "Point",
        "coordinates": [
          2.3622,
          48.8555
        ]
      }
    },
    {
      "type": "Feature",
      "properties": {
        "name": "Hôtel d'Angoulême Lamoignon",
        "style": "Renaissance",
        "year_built": 1584,
        "architect": "Unknown",
        "description": "Renaissance building constructed in 1584."
      },
      "geometry": {
        "type": "Point",
        "coordinates": [
          2.3629,
          48.8571
        ]
      }
    },
    {
      "type": "Feature",
      "properties": {
        "name": "Hôtel de Beauvais",
        "style": "Renaissance",
        "year_built": "1654–1655",
        "architect": "Unknown",
        "description": "Renaissance building constructed in 1654–1655."
      },
      "geometry": {
        "type": "Point",
        "coordinates": [
          2.3572,
          48.8553
        ]
      }
    },
    {
      "type": "Feature",
      "properties": {
        "name": "Hôtel de Cluny",
        "style": "Renaissance",
        "year_built": "1485–1510",
        "architect": "Unknown",
        "description": "Renaissance building constructed in 1485–1510."
      },
      "geometry": {
        "type": "Point",
        "coordinates": [
          2.343,
          48.8506
        ]
      }
    },
    {
      "type": "Feature",
      "properties": {
        "name": "Les Invalides",
        "style": "Baroque",
        "year_built": "1671–1708",
        "architect": "Unknown",
        "description": "Baroque building constructed in 1671–1708."
      },
      "geometry": {
        "type": "Point",
        "coordinates": [
          2.3125,
          48.855
        ]
      }
    },
    {
      "type": "Feature",
      "properties": {
        "name": "Church of Saint-Sulpice",
        "style": "Baroque",
        "year_built": "1646–1870",
        "architect": "Unknown",
        "description": "Baroque building constructed in 1646–1870."
      },
      "geometry": {
        "type": "Point",
        "coordinates": [
          2.3331,
          48.8519
        ]
      }
    },
    {
      "type": "Feature",
      "properties": {
        "name": "Church of Saint-Paul-Saint-Louis",
        "style": "Baroque",
        "year_built": "1627–1641",
        "architect": "Unknown",
        "description": "Baroque building constructed in 1627–1641."
      },
      "geometry": {
        "type": "Point",
        "coordinates": [
          2.3626,
          48.8553
        ]
      }
    },
    {
      "type": "Feature",
      "properties": {
        "name": "Hôtel Lambert",
        "style": "Baroque",
        "year_built": "1640–1644",
        "architect": "Unknown",
        "description": "Baroque building constructed in 1640–1644."
      },
      "geometry": {
        "type": "Point",
        "coordinates": [
          2.3593,
          48.8515
        ]
      }
    },
    {
      "type": "Feature",
      "properties": {
        "name": "Hôtel de Beauvais",
        "style": "Baroque",
        "year_built": "1654–1655",
        "architect": "Unknown",
        "description": "Baroque building constructed in 1654–1655."
      },
      "geometry": {
        "type": "Point",
        "coordinates": [
          2.3572,
          48.8553
        ]
      }
    },
    {
      "type": "Feature",
      "properties": {
        "name": "Church of Saint-Louis-en-l'Île",
        "style": "Baroque",
        "year_built": "1664–1726",
        "architect": "Unknown",
        "description": "Baroque building constructed in 1664–1726."
      },
      "geometry": {
        "type": "Point",
        "coordinates": [
          2.3576,
          48.8513
        ]
      }
    },
    {
      "type": "Feature",
      "properties": {
        "name": "Church of Saint-Roch",
        "style": "Baroque",
        "year_built": "1653–1722",
        "architect": "Unknown",
        "description": "Baroque building constructed in 1653–1722."
      },
      "geometry": {
        "type": "Point",
        "coordinates": [
          2.3317,
          48.8664
        ]
      }
    },
    {
      "type": "Feature",
      "properties": {
        "name": "Church of Saint-Thomas-d'Aquin",
        "style": "Baroque",
        "year_built": "1682–1683",
        "architect": "Unknown",
        "description": "Baroque building constructed in 1682–1683."
      },
      "geometry": {
        "type": "Point",
        "coordinates": [
          2.3242,
          48.855
        ]
      }
    },
    {
      "type": "Feature",
      "properties": {
        "name": "Church of Saint-Joseph-des-Carmes",
        "style": "Baroque",
        "year_built": "1613–1620",
        "architect": "Unknown",
        "description": "Baroque building constructed in 1613–1620."
      },
      "geometry": {
        "type": "Point",
        "coordinates": [
          2.3378,
          48.8475
        ]
      }
    },
    {
      "type": "Feature",
      "properties": {
        "name": "Church of Saint-François-Xavier",
        "style": "Baroque",
        "year_built": "1861–1874",
        "architect": "Unknown",
        "description": "Baroque building constructed in 1861–1874."
      },
      "geometry": {
        "type": "Point",
        "coordinates": [
          2.3125,
          48.85
        ]
      }
    },
    {
      "type": "Feature",
      "properties": {
        "name": "Panthéon",
        "style": "Neoclassical",
        "year_built": "1758–1790",
        "architect": "Unknown",
        "description": "Neoclassical building constructed in 1758–1790."
      },
      "geometry": {
        "type": "Point",
        "coordinates": [
          2.3458,
          48.8462
        ]
      }
    },
    {
      "type": "Feature",
      "properties": {
        "name": "La Madeleine Church",
        "style": "Neoclassical",
        "year_built": "1764–1842",
        "architect": "Unknown",
        "description": "Neoclassical building constructed in 1764–1842."
      },
      "geometry": {
        "type": "Point",
        "coordinates": [
          2.32,
          48.87
        ]
      }
    },
    {
      "type": "Feature",
      "properties": {
        "name": "Arc de Triomphe",
        "style": "Neoclassical",
        "year_built": "1806–1836",
        "architect": "Unknown",
        "description": "Neoclassical building constructed in 1806–1836."
      },
      "geometry": {
        "type": "Point",
        "coordinates": [
          2.295,
          48.8738
        ]
      }
    },
    {
      "type": "Feature",
      "properties": {
        "name": "Palais Bourbon",
        "style": "Neoclassical",
        "year_built": "1722–1728",
        "architect": "Unknown",
        "description": "Neoclassical building constructed in 1722–1728."
      },
      "geometry": {
        "type": "Point",
        "coordinates": [
          2.3167,
          48.8611
        ]
      }
    },
    {
      "type": "Feature",
      "properties": {
        "name": "Palais Brongniart",
        "style": "Neoclassical",
        "year_built": "1807–1826",
        "architect": "Unknown",
        "description": "Neoclassical building constructed in 1807–1826."
      },
      "geometry": {
        "type": "Point",
        "coordinates": [
          2.3411,
          48.8688
        ]
      }
    },
    {
      "type": "Feature",
      "properties": {
        "name": "Church of Saint-Vincent-de-Paul",
        "style": "Neoclassical",
        "year_built": "1824–1844",
        "architect": "Unknown",
        "description": "Neoclassical building constructed in 1824–1844."
      },
      "geometry": {
        "type": "Point",
        "coordinates": [
          2.3528,
          48.8792
        ]
      }
    },
    {
      "type": "Feature",
      "properties": {
        "name": "Chapelle Expiatoire",
        "style": "Neoclassical",
        "year_built": "1815–1826",
        "architect": "Unknown",
        "description": "Neoclassical building constructed in 1815–1826."
      },
      "geometry": {
        "type": "Point",
        "coordinates": [
          2.3235,
          48.8747
        ]
      }
    },
    {
      "type": "Feature",
      "properties": {
        "name": "Hôtel de Salm",
        "style": "Neoclassical",
        "year_built": "1782–1787",
        "architect": "Unknown",
        "description": "Neoclassical building constructed in 1782–1787."
      },
      "geometry": {
        "type": "Point",
        "coordinates": [
          2.3243,
          48.8635
        ]
      }
    },
    {
      "type": "Feature",
      "properties": {
        "name": "Palais de la Légion d'Honneur",
        "style": "Neoclassical",
        "year_built": "1782–1787",
        "architect": "Unknown",
        "description": "Neoclassical building constructed in 1782–1787."
      },
      "geometry": {
        "type": "Point",
        "coordinates": [
          2.3243,
          48.8635
        ]
      }
    },
    {
      "type": "Feature",
      "properties": {
        "name": "Palais du Luxembourg",
        "style": "Neoclassical",
        "year_built": "1615–1645",
        "architect": "Unknown",
        "description": "Neoclassical building constructed in 1615–1645."
      },
      "geometry": {
        "type": "Point",
        "coordinates": [
          2.3372,
          48.8462
        ]
      }
    },
    {
      "type": "Feature",
      "properties": {
        "name": "Boulevard Haussmann",
        "style": "Haussmannian",
        "year_built": "1857–1927",
        "architect": "Unknown",
        "description": "Haussmannian building constructed in 1857–1927."
      },
      "geometry": {
        "type": "Point",
        "coordinates": [
          2.33,
          48.874
        ]
      }
    },
    {
      "type": "Feature",
      "properties": {
        "name": "Avenue de l'Opéra",
        "style": "Haussmannian",
        "year_built": "1864–1879",
        "architect": "Unknown",
        "description": "Haussmannian building constructed in 1864–1879."
      },
      "geometry": {
        "type": "Point",
        "coordinates": [
          2.3325,
          48.8667
        ]
      }
    },
    {
      "type": "Feature",
      "properties": {
        "name": "Boulevard Saint-Germain",
        "style": "Haussmannian",
        "year_built": "1855–1877",
        "architect": "Unknown",
        "description": "Haussmannian building constructed in 1855–1877."
      },
      "geometry": {
        "type": "Point",
        "coordinates": [
          2.3444,
          48.8525
        ]
      }
    },
    {
      "type": "Feature",
      "properties": {
        "name": "Boulevard Henri IV",
        "style": "Haussmannian",
        "year_built": "1855–1877",
        "architect": "Unknown",
        "description": "Haussmannian building constructed in 1855–1877."
      },
      "geometry": {
        "type": "Point",
        "coordinates": [
          2.36,
          48.85
        ]
      }
    },
    {
      "type": "Feature",
      "properties": {
        "name": "Boulevard Raspail",
        "style": "Haussmannian",
        "year_built": "1855–1907",
        "architect": "Unknown",
        "description": "Haussmannian building constructed in 1855–1907."
      },
      "geometry": {
        "type": "Point",
        "coordinates": [
          2.3269,
          48.8417
        ]
      }
    },
    {
      "type": "Feature",
      "properties": {
        "name": "Place de l'Étoile",
        "style": "Haussmannian",
        "year_built": "1854–1869",
        "architect": "Unknown",
        "description": "Haussmannian building constructed in 1854–1869."
      },
      "geometry": {
        "type": "Point",
        "coordinates": [
          2.295,
          48.8738
        ]
      }
    },
    {
      "type": "Feature",
      "properties": {
        "name": "Place de la République",
        "style": "Haussmannian",
        "year_built": "1854–1879",
        "architect": "Unknown",
        "description": "Haussmannian building constructed in 1854–1879."
      },
      "geometry": {
        "type": "Point",
        "coordinates": [
          2.363,
          48.8675
        ]
      }
    },
    {
      "type": "Feature",
      "properties": {
        "name": "Place du Châtelet",
        "style": "Haussmannian",
        "year_built": "1854–1860",
        "architect": "Unknown",
        "description": "Haussmannian building constructed in 1854–1860."
      },
      "geometry": {
        "type": "Point",
        "coordinates": [
          2.347,
          48.8583
        ]
      }
    },
    {
      "type": "Feature",
      "properties": {
        "name": "Place de la Bastille",
        "style": "Haussmannian",
        "year_built": "1854–1860",
        "architect": "Unknown",
        "description": "Haussmannian building constructed in 1854–1860."
      },
      "geometry": {
        "type": "Point",
        "coordinates": [
          2.369,
          48.853
        ]
      }
    },
    {
      "type": "Feature",
      "properties": {
        "name": "Place de la Nation",
        "style": "Haussmannian",
        "year_built": "1854–1860",
        "architect": "Unknown",
        "description": "Haussmannian building constructed in 1854–1860."
      },
      "geometry": {
        "type": "Point",
        "coordinates": [
          2.395,
          48.848
        ]
      }
    },
    {
      "type": "Feature",
      "properties": {
        "name": "Castel Béranger",
        "style": "Art Nouveau",
        "year_built": "1895–1898",
        "architect": "Unknown",
        "description": "Art Nouveau building constructed in 1895–1898."
      },
      "geometry": {
        "type": "Point",
        "coordinates": [
          2.27,
          48.847
        ]
      }
    },
    {
      "type": "Feature",
      "properties": {
        "name": "Hôtel Guimard",
        "style": "Art Nouveau",
        "year_built": 1909,
        "architect": "Unknown",
        "description": "Art Nouveau building constructed in 1909."
      },
      "geometry": {
        "type": "Point",
        "coordinates": [
          2.27,
          48.848
        ]
      }
    },
    {
      "type": "Feature",
      "properties": {
        "name": "29 Avenue Rapp",
        "style": "Art Nouveau",
        "year_built": 1901,
        "architect": "Unknown",
        "description": "Art Nouveau building constructed in 1901."
      },
      "geometry": {
        "type": "Point",
        "coordinates": [
          2.301,
          48.861
        ]
      }
    },
    {
      "type": "Feature",
      "properties": {
        "name": "6 Avenue Kléber",
        "style": "Art Nouveau",
        "year_built": "Early 20th century",
        "architect": "Unknown",
        "description": "Art Nouveau building constructed in Early 20th century."
      },
      "geometry": {
        "type": "Point",
        "coordinates": [
          2.293,
          48.866
        ]
      }
    },
    {
      "type": "Feature",
      "properties": {
        "name": "Galeries Lafayette",
        "style": "Art Nouveau",
        "year_built": 1912,
        "architect": "Unknown",
        "description": "Art Nouveau building constructed in 1912."
      },
      "geometry": {
        "type": "Point",
        "coordinates": [
          2.332,
          48.872
        ]
      }
    },
    {
      "type": "Feature",
      "properties": {
        "name": "La Samaritaine",
        "style": "Art Nouveau",
        "year_built": 1870,
        "architect": "Unknown",
        "description": "Art Nouveau building constructed in 1870."
      },
      "geometry": {
        "type": "Point",
        "coordinates": [
          2.3421,
          48.8589
        ]
      }
    },
    {
      "type": "Feature",
      "properties": {
        "name": "Hôtel Mezzara",
        "style": "Art Nouveau",
        "year_built": 1910,
        "architect": "Unknown",
        "description": "Art Nouveau building constructed in 1910."
      },
      "geometry": {
        "type": "Point",
        "coordinates": [
          2.27,
          48.847
        ]
      }
    },
    {
      "type": "Feature",
      "properties": {
        "name": "14 Rue Jean de la Fontaine",
        "style": "Art Nouveau",
        "year_built": "1895–1898",
        "architect": "Unknown",
        "description": "Art Nouveau building constructed in 1895–1898."
      },
      "geometry": {
        "type": "Point",
        "coordinates": [
          2.27,
          48.847
        ]
      }
    },
    {
      "type": "Feature",
      "properties": {
        "name": "33 Rue du Champ de Mars",
        "style": "Art Nouveau",
        "year_built": "Early 20th century",
        "architect": "Unknown",
        "description": "Art Nouveau building constructed in Early 20th century."
      },
      "geometry": {
        "type": "Point",
        "coordinates": [
          2.3,
          48.857
        ]
      }
    },
    {
      "type": "Feature",
      "properties": {
        "name": "34 Avenue des Champs-Élysées",
        "style": "Art Nouveau",
        "year_built": "Early 20th century",
        "architect": "Unknown",
        "description": "Art Nouveau building constructed in Early 20th century."
      },
      "geometry": {
        "type": "Point",
        "coordinates": [
          2.307,
          48.869
        ]
      }
    },
    {
      "type": "Feature",
      "properties": {
        "name": "Villa Savoye",
        "style": "Modernist",
        "year_built": "1928–1931",
        "architect": "Unknown",
        "description": "Modernist building constructed in 1928–1931."
      },
      "geometry": {
        "type": "Point",
        "coordinates": [
          2.036,
          48.932
        ]
      }
    },
    {
      "type": "Feature",
      "properties": {
        "name": "Maison La Roche",
        "style": "Modernist",
        "year_built": "1923–1925",
        "architect": "Unknown",
        "description": "Modernist building constructed in 1923–1925."
      },
      "geometry": {
        "type": "Point",
        "coordinates": [
          2.27,
          48.851
        ]
      }
    },
    {
      "type": "Feature",
      "properties": {
        "name": "Cité de Refuge",
        "style": "Modernist",
        "year_built": 1933,
        "architect": "Unknown",
        "description": "Modernist building constructed in 1933."
      },
      "geometry": {
        "type": "Point",
        "coordinates": [
          2.37,
          48.832
        ]
      }
    },
    {
      "type": "Feature",
      "properties": {
        "name": "Maison Planeix",
        "style": "Modernist",
        "year_built": "1924–1928",
        "architect": "Unknown",
        "description": "Modernist building constructed in 1924–1928."
      },
      "geometry": {
        "type": "Point",
        "coordinates": [
          2.37,
          48.835
        ]
      }
    },
    {
      "type": "Feature",
      "properties": {
        "name": "Maison Cook",
        "style": "Modernist",
        "year_built": 1926,
        "architect": "Unknown",
        "description": "Modernist building constructed in 1926."
      },
      "geometry": {
        "type": "Point",
        "coordinates": [
          2.27,
          48.841
        ]
      }
    },
    {
      "type": "Feature",
      "properties": {
        "name": "Immeuble Molitor",
        "style": "Modernist",
        "year_built": 1934,
        "architect": "Unknown",
        "description": "Modernist building constructed in 1934."
      },
      "geometry": {
        "type": "Point",
        "coordinates": [
          2.27,
          48.846
        ]
      }
    },
    {
      "type": "Feature",
      "properties": {
        "name": "Maison du Brésil",
        "style": "Modernist",
        "year_built": 1959,
        "architect": "Unknown",
        "description": "Modernist building constructed in 1959."
      },
      "geometry": {
        "type": "Point",
        "coordinates": [
          2.337,
          48.823
        ]
      }
    },
    {
      "type": "Feature",
      "properties": {
        "name": "Maison de Verre",
        "style": "Modernist",
        "year_built": "1928–1932",
        "architect": "Unknown",
        "description": "Modernist building constructed in 1928–1932."
      },
      "geometry": {
        "type": "Point",
        "coordinates": [
          2.34,
          48.847
        ]
      }
    },
    {
      "type": "Feature",
      "properties": {
        "name": "Immeuble Clarté",
        "style": "Modernist",
        "year_built": 1932,
        "architect": "Unknown",
        "description": "Modernist building constructed in 1932."
      },
      "geometry": {
        "type": "Point",
        "coordinates": [
          2.27,
          48.849
        ]
      }
    },
    {
      "type": "Feature",
      "properties": {
        "name": "Les Espaces d'Abraxas",
        "style": "Postmodernist",
        "year_built": "1978–1982",
        "architect": "Unknown",
        "description": "Postmodernist building constructed in 1978–1982."
      },
      "geometry": {
        "type": "Point",
        "coordinates": [
          2.548,
          48.8411
        ]
      }
    },
    {
      "type": "Feature",
      "properties": {
        "name": "Tour Montparnasse",
        "style": "Postmodernist",
        "year_built": "1969–1973",
        "architect": "Unknown",
        "description": "Postmodernist building constructed in 1969–1973."
      },
      "geometry": {
        "type": "Point",
        "coordinates": [
          2.3215,
          48.8422
        ]
      }
    },
    {
      "type": "Feature",
      "properties": {
        "name": "Arab World Institute",
        "style": "Postmodernist",
        "year_built": "1981–1987",
        "architect": "Unknown",
        "description": "Postmodernist building constructed in 1981–1987."
      },
      "geometry": {
        "type": "Point",
        "coordinates": [
          2.358,
          48.848
        ]
      }
    },
    {
      "type": "Feature",
      "properties": {
        "name": "Bibliothèque Nationale de France",
        "style": "Postmodernist",
        "year_built": "1989–1995",
        "architect": "Unknown",
        "description": "Postmodernist building constructed in 1989–1995."
      },
      "geometry": {
        "type": "Point",
        "coordinates": [
          2.376,
          48.833
        ]
      }
    },
    {
      "type": "Feature",
      "properties": {
        "name": "Palais de Tokyo Expansion",
        "style": "Postmodernist",
        "year_built": "2001–2002",
        "architect": "Unknown",
        "description": "Postmodernist building constructed in 2001–2002."
      },
      "geometry": {
        "type": "Point",
        "coordinates": [
          2.2966,
          48.8645
        ]
      }
    },
    {
      "type": "Feature",
      "properties": {
        "name": "Parc de la Villette",
        "style": "Postmodernist",
        "year_built": "1984–1987",
        "architect": "Unknown",
        "description": "Postmodernist building constructed in 1984–1987."
      },
      "geometry": {
        "type": "Point",
        "coordinates": [
          2.393,
          48.89
        ]
      }
    },
    {
      "type": "Feature",
      "properties": {
        "name": "Hôtel Fouquet's Barrière",
        "style": "Postmodernist",
        "year_built": 2006,
        "architect": "Unknown",
        "description": "Postmodernist building constructed in 2006."
      },
      "geometry": {
        "type": "Point",
        "coordinates": [
          2.3,
          48.8722
        ]
      }
    },
    {
      "type": "Feature",
      "properties": {
        "name": "Les Colonnes de Buren (Palais Royal)",
        "style": "Postmodernist",
        "year_built": "1985–1986",
        "architect": "Unknown",
        "description": "Postmodernist building constructed in 1985–1986."
      },
      "geometry": {
        "type": "Point",
        "coordinates": [
          2.336,
          48.8638
        ]
      }
    },
    {
      "type": "Feature",
      "properties": {
        "name": "La Défense Grande Arche",
        "style": "Postmodernist",
        "year_built": "1985–1989",
        "architect": "Unknown",
        "description": "Postmodernist building constructed in 1985–1989."
      },
      "geometry": {
        "type": "Point",
        "coordinates": [
          2.2369,
          48.8925
        ]
      }
    },
    {
      "type": "Feature",
      "properties": {
        "name": "Les Orgues de Flandre",
        "style": "Postmodernist",
        "year_built": "1974–1980",
        "architect": "Unknown",
        "description": "Postmodernist building constructed in 1974–1980."
      },
      "geometry": {
        "type": "Point",
        "coordinates": [
          2.383,
          48.889
        ]
      }
    },
    {
      "type": "Feature",
      "properties": {
        "name": "Fondation Louis Vuitton",
        "style": "Contemporary",
        "year_built": "2006–2014",
        "architect": "Unknown",
        "description": "Contemporary building constructed in 2006–2014."
      },
      "geometry": {
        "type": "Point",
        "coordinates": [
          2.2634,
          48.8766
        ]
      }
    },
    {
      "type": "Feature",
      "properties": {
        "name": "Philharmonie de Paris",
        "style": "Contemporary",
        "year_built": "2006–2015",
        "architect": "Unknown",
        "description": "Contemporary building constructed in 2006–2015."
      },
      "geometry": {
        "type": "Point",
        "coordinates": [
          2.3941,
          48.8916
        ]
      }
    },
    {
      "type": "Feature",
      "properties": {
        "name": "Musée du quai Branly – Jacques Chirac",
        "style": "Contemporary",
        "year_built": "2001–2006",
        "architect": "Unknown",
        "description": "Contemporary building constructed in 2001–2006."
      },
      "geometry": {
        "type": "Point",
        "coordinates": [
          2.2976,
          48.8606
        ]
      }
    },
    {
      "type": "Feature",
      "properties": {
        "name": "The Louvre Pyramid",
        "style": "Contemporary",
        "year_built": "1984–1989",
        "architect": "Unknown",
        "description": "Contemporary building constructed in 1984–1989."
      },
      "geometry": {
        "type": "Point",
        "coordinates": [
          2.3376,
          48.8606
        ]
      }
    },
    {
      "type": "Feature",
      "properties": {
        "name": "La Seine Musicale",
        "style": "Contemporary",
        "year_built": "2013–2017",
        "architect": "Unknown",
        "description": "Contemporary building constructed in 2013–2017."
      },
      "geometry": {
        "type": "Point",
        "coordinates": [
          2.2296,
          48.8306
        ]
      }
    },
    {
      "type": "Feature",
      "properties": {
        "name": "Les Docks – Cité de la Mode et du Design",
        "style": "Contemporary",
        "year_built": "2008–2012",
        "architect": "Unknown",
        "description": "Contemporary building constructed in 2008–2012."
      },
      "geometry": {
        "type": "Point",
        "coordinates": [
          2.37,
          48.8445
        ]
      }
    },
    {
      "type": "Feature",
      "properties": {
        "name": "Canopy of Les Halles",
        "style": "Contemporary",
        "year_built": "2010–2016",
        "architect": "Unknown",
        "description": "Contemporary building constructed in 2010–2016."
      },
      "geometry": {
        "type": "Point",
        "coordinates": [
          2.3469,
          48.8626
        ]
      }
    },
    {
      "type": "Feature",
      "properties": {
        "name": "Tour Triangle (planned)",
        "style": "Contemporary",
        "year_built": "2020–2026 (est.)",
        "architect": "Unknown",
        "description": "Contemporary building constructed in 2020–2026 (est.)."
      },
      "geometry": {
        "type": "Point",
        "coordinates": [
          2.29,
          48.83
        ]
      }
    },
    {
      "type": "Feature",
      "properties": {
        "name": "Maréchal Fayolle Housing Complex",
        "style": "Contemporary",
        "year_built": "2014–2018",
        "architect": "Unknown",
        "description": "Contemporary building constructed in 2014–2018."
      },
      "geometry": {
        "type": "Point",
        "coordinates": [
          2.264,
          48.863
        ]
      }
    },
    {
      "type": "Feature",
      "properties": {
        "name": "100 logements sociaux, Rue Rebière",
        "style": "Contemporary",
        "year_built": "2011–2014",
        "architect": "Unknown",
        "description": "Contemporary building constructed in 2011–2014."
      },
      "geometry": {
        "type": "Point",
        "coordinates": [
          2.338,
          48.899
        ]
      }
    }
  ]
}