{
"type": "FeatureCollection",
"crs": { "type": "name", "properties": { "name": "urn:ogc:def:crs:OGC:1.3:CRS84" } },
"features": [
{ "type": "Feature", "properties": { "museum_id": "7510303", "name": "MUSÉE D'ART ET D'HISTOIRE DU JUDAÏSME", "category": null, "theme": "Archéologie, Arts décoratifs, Art moderne et contemporain, Beaux-arts, Ethnologie, Histoire, Photographie", "category_filled": "Art", "mean_visitors": 99986.571428571435, "category_grouped": "Art", "exhibitions_within_500m": 11 }, "geometry": { "type": "Point", "coordinates": [ 2.355608, 48.86095 ] } },
{ "type": "Feature", "properties": { "museum_id": "7510902", "name": "MUSÉE DE LA FRANC-MAÇONNERIE", "category": null, "theme": "Arts décoratifs, Ethnologie, Histoire", "category_filled": "Art", "mean_visitors": 12569.1, "category_grouped": "Art", "exhibitions_within_500m": 3 }, "geometry": { "type": "Point", "coordinates": [ 2.343088, 48.874991 ] } },
{ "type": "Feature", "properties": { "museum_id": "7510501", "name": "MUSÉE DU MOYEN AGE - THERMES ET HÔTEL DE CLUNY", "category": "Musée de site", "theme": "Archéologie, Beaux-arts, Histoire", "category_filled": "Musée de site", "mean_visitors": 251863.76470588235, "category_grouped": "Art", "exhibitions_within_500m": 5 }, "geometry": { "type": "Point", "coordinates": [ 2.344553, 48.850437 ] } },
{ "type": "Feature", "properties": { "museum_id": "7511603", "name": "MUSÉE DES ARTS ASIATIQUES GUIMET", "category": null, "theme": "Archéologie, Arts décoratifs, Beaux-arts, Ethnologie, Asie", "category_filled": "Art", "mean_visitors": 363064.33333333331, "category_grouped": "Art", "exhibitions_within_500m": 2 }, "geometry": { "type": "Point", "coordinates": [ 2.293754, 48.86425 ] } },
{ "type": "Feature", "properties": { "museum_id": "7510603", "name": "MUSÉE HÉBERT", "category": "Maison d'artiste", "theme": "Arts décoratifs, Beaux-arts, Photographie", "category_filled": "Maison d'artiste", "mean_visitors": 3502.75, "category_grouped": "History", "exhibitions_within_500m": 6 }, "geometry": { "type": "Point", "coordinates": [ 2.322709, 48.847429 ] } },
{ "type": "Feature", "properties": { "museum_id": "7510402", "name": "MUSÉE NATIONAL D'ART MODERNE (CENTRE NATIONAL D’ART ET DE CULTURE GEORGES POMPIDOU)", "category": null, "theme": "Art moderne et contemporain, Photographie, Technique et industrie, Ethnologie, Afrique", "category_filled": "Art", "mean_visitors": 3013424.0476190476, "category_grouped": "Art", "exhibitions_within_500m": 18 }, "geometry": { "type": "Point", "coordinates": [ 2.352223540635519, 48.86080432275962 ] } },
{ "type": "Feature", "properties": { "museum_id": "7510304", "name": "MUSÉE DES ARTS ET MÉTIERS", "category": null, "theme": "Sciences fondamentales, Technique et industrie", "category_filled": "Science", "mean_visitors": 147406.5, "category_grouped": "Science", "exhibitions_within_500m": 6 }, "geometry": { "type": "Point", "coordinates": [ 2.357046, 48.865357 ] } },
{ "type": "Feature", "properties": { "museum_id": "7510801", "name": "MUSÉE NISSIM DE CAMONDO (UNION CENTRALE DES ARTS DÉCORATIFS)", "category": null, "theme": "Arts décoratifs", "category_filled": "Art", "mean_visitors": 45654.0, "category_grouped": "Art", "exhibitions_within_500m": 1 }, "geometry": { "type": "Point", "coordinates": [ 2.312855, 48.878849 ] } },
{ "type": "Feature", "properties": { "museum_id": "7510305", "name": "MUSÉE NATIONAL PICASSO - PARIS", "category": null, "theme": "Art moderne et contemporain, Photographie, Ethnologie, Afrique", "category_filled": "Art", "mean_visitors": 169389.0, "category_grouped": "Art", "exhibitions_within_500m": 17 }, "geometry": { "type": "Point", "coordinates": [ 2.362644, 48.8597 ] } },
{ "type": "Feature", "properties": { "museum_id": "7511619", "name": "MUSÉE YVES-SAINT-LAURENT", "category": null, "theme": null, "category_filled": "Unclassified", "mean_visitors": 93237.0, "category_grouped": "Unclassified", "exhibitions_within_500m": 0 }, "geometry": { "type": "Point", "coordinates": [ 2.280339, 48.873694 ] } },
{ "type": "Feature", "properties": { "museum_id": "7510516", "name": "MUSÉE DU SERVICE DE SANTÉ DES ARMÉES DU VAL-DE-GRÂCE", "category": null, "theme": "Histoire, Sciences de la nature, Technique et industrie", "category_filled": "History", "mean_visitors": 15342.461538461539, "category_grouped": "History", "exhibitions_within_500m": 0 }, "geometry": { "type": "Point", "coordinates": [ 2.341091, 48.840814 ] } },
{ "type": "Feature", "properties": { "museum_id": "7511403", "name": "MUSÉE D’ART ET D’HISTOIRE DE L’HÔPITAL SAINTE-ANNE", "category": null, "theme": "Art moderne et contemporain, Beaux-arts, Histoire", "category_filled": "Art", "mean_visitors": 5501.0, "category_grouped": "Art", "exhibitions_within_500m": 2 }, "geometry": { "type": "Point", "coordinates": [ 2.340376, 48.830264 ] } },
{ "type": "Feature", "properties": { "museum_id": "7510301", "name": "MUSÉE DE LA CHASSE ET DE LA NATURE", "category": null, "theme": "Arts décoratifs, Sciences de la nature, Ethnologie, Afrique", "category_filled": "Art", "mean_visitors": 50171.055555555555, "category_grouped": "Art", "exhibitions_within_500m": 9 }, "geometry": { "type": "Point", "coordinates": [ 2.358608, 48.861491 ] } },
{ "type": "Feature", "properties": { "museum_id": "7510905", "name": "MUSÉE DE LA VIE ROMANTIQUE", "category": "Maison musée. Musée littéraire.", "theme": "Beaux-Arts, Littérature", "category_filled": "Maison musée. Musée littéraire.", "mean_visitors": 91288.05, "category_grouped": "History", "exhibitions_within_500m": 1 }, "geometry": { "type": "Point", "coordinates": [ 2.333278, 48.880899 ] } },
{ "type": "Feature", "properties": { "museum_id": "7510405", "name": "MAISON DE VICTOR HUGO", "category": "Maison musée. Musée littéraire. Maison des Illustres.", "theme": "Beaux-Arts, Histoire", "category_filled": "Maison musée. Musée littéraire. Maison des Illustres.", "mean_visitors": 131534.1, "category_grouped": "History", "exhibitions_within_500m": 19 }, "geometry": { "type": "Point", "coordinates": [ 2.366232, 48.854808 ] } },
{ "type": "Feature", "properties": { "museum_id": "7510808", "name": "PETIT PALAIS, MUSÉE DES BEAUX-ARTS DE LA VILLE DE PARIS", "category": null, "theme": "Arts décoratifs, Art moderne et contemporain, Beaux-arts, Photographie", "category_filled": "Art", "mean_visitors": 648399.5555555555, "category_grouped": "Art", "exhibitions_within_500m": 1 }, "geometry": { "type": "Point", "coordinates": [ 2.313763, 48.86609 ] } },
{ "type": "Feature", "properties": { "museum_id": "7510608", "name": "MUSÉE ZADKINE", "category": "Musée de site", "theme": "Beaux-Arts, Art moderne et contemporain", "category_filled": "Musée de site", "mean_visitors": 23454.55, "category_grouped": "Art", "exhibitions_within_500m": 0 }, "geometry": { "type": "Point", "coordinates": [ 2.333457, 48.842793 ] } },
{ "type": "Feature", "properties": { "museum_id": "7510102", "name": "MUSÉE DES ARTS DÉCORATIFS (UNION CENTRALE DES ARTS DÉCORATIFS)", "category": null, "theme": "Technique et industrie", "category_filled": "Science", "mean_visitors": 371938.17647058825, "category_grouped": "Science", "exhibitions_within_500m": 1 }, "geometry": { "type": "Point", "coordinates": [ 2.3333, 48.863218 ] } },
{ "type": "Feature", "properties": { "museum_id": "7511618", "name": "MUSÉE NATIONAL DE LA MARINE", "category": null, "theme": "Arts décoratifs, Beaux-Arts, Histoire, Sciences fondamentales, Technique et industrie, Ethnologie, Afrique, Amérique, Asie, Océanie, Arts de l'Islam, Mémoire de l'esclavage", "category_filled": "Art", "mean_visitors": 174234.41176470587, "category_grouped": "Art", "exhibitions_within_500m": 2 }, "geometry": { "type": "Point", "coordinates": [ 2.293754, 48.86425 ] } },
{ "type": "Feature", "properties": { "museum_id": "7510106", "name": "MUSÉE DU LOUVRE", "category": "Domaine national. Jardin remarquable.", "theme": "Archéologie, Arts décoratifs, Beaux-arts, Histoire, Arts de l'Islam", "category_filled": "Domaine national. Jardin remarquable.", "mean_visitors": 7509111.5714285718, "category_grouped": "Science", "exhibitions_within_500m": 4 }, "geometry": { "type": "Point", "coordinates": [ 2.33781565968178, 48.860794598069063 ] } },
{ "type": "Feature", "properties": { "museum_id": "7511606", "name": "MUSÉE DES MONUMENTS FRANÇAIS", "category": null, "theme": "Beaux-Arts, Histoire", "category_filled": "Art", "mean_visitors": 267732.33333333331, "category_grouped": "Art", "exhibitions_within_500m": 2 }, "geometry": { "type": "Point", "coordinates": [ 2.281879, 48.862323 ] } },
{ "type": "Feature", "properties": { "museum_id": "7510610", "name": "MUSÉE DE L'ECOLE NATIONALE SUPÉRIEURE DES BEAUX-ARTS", "category": null, "theme": null, "category_filled": "Unclassified", "mean_visitors": 41469.2, "category_grouped": "Unclassified", "exhibitions_within_500m": 2 }, "geometry": { "type": "Point", "coordinates": [ 2.33167, 48.845748 ] } },
{ "type": "Feature", "properties": { "museum_id": "7511502", "name": "MUSÉE BOURDELLE", "category": "Musée de site", "theme": "Beaux-Arts, Art moderne et contemporain", "category_filled": "Musée de site", "mean_visitors": 59707.45, "category_grouped": "Art", "exhibitions_within_500m": 3 }, "geometry": { "type": "Point", "coordinates": [ 2.31883, 48.843017 ] } },
{ "type": "Feature", "properties": { "museum_id": "7510802", "name": "MUSÉE DE LA MUSIQUE", "category": null, "theme": "Arts décoratifs, Ethnologie, Afrique, Amérique, Asie, Océanie, Arts de l'Islam", "category_filled": "Art", "mean_visitors": 194241.38095238095, "category_grouped": "Art", "exhibitions_within_500m": 3 }, "geometry": { "type": "Point", "coordinates": [ 2.393807, 48.889306 ] } },
{ "type": "Feature", "properties": { "museum_id": "7510709", "name": "MUSÉE DU QUAI BRANLY - JACQUES CHIRAC", "category": "Architecture contemporaine remarquable.", "theme": "Archéologie, Art moderne et contemporain, Histoire, Photographie, Ethnologie, Afrique, Amérique, Asie, Océanie, Arts de l'Islam", "category_filled": "Architecture contemporaine remarquable.", "mean_visitors": 1051207.75, "category_grouped": "Art", "exhibitions_within_500m": 2 }, "geometry": { "type": "Point", "coordinates": [ 2.29771, 48.861511 ] } },
{ "type": "Feature", "properties": { "museum_id": "7511801", "name": "MUSÉE DE MONTMARTRE", "category": "Maison d'artiste", "theme": "Arts décoratifs, Art moderne et contemporain, Beaux-arts, Histoire, Photographie", "category_filled": "Maison d'artiste", "mean_visitors": 63912.380952380954, "category_grouped": "History", "exhibitions_within_500m": 1 }, "geometry": { "type": "Point", "coordinates": [ 2.340577, 48.887709 ] } },
{ "type": "Feature", "properties": { "museum_id": "7510517", "name": "MUSÉE DE L'ASSISTANCE PUBLIQUE - HÔPITAUX DE PARIS", "category": null, "theme": "Arts décoratifs, Beaux-arts, Histoire, Photographie, Sciences de la nature, Sciences fondamentales, Technique et industrie", "category_filled": "Art", "mean_visitors": 11934.588235294117, "category_grouped": "Art", "exhibitions_within_500m": 1 }, "geometry": { "type": "Point", "coordinates": [ 2.356007, 48.838805 ] } },
{ "type": "Feature", "properties": { "museum_id": "7510307", "name": "MUSÉE CARNAVALET – HISTOIRE DE PARIS", "category": null, "theme": "Archéologie, Arts décoratifs, Art moderne et contemporain, Beaux-arts, Histoire, Photographie", "category_filled": "Art", "mean_visitors": 394695.5294117647, "category_grouped": "Art", "exhibitions_within_500m": 19 }, "geometry": { "type": "Point", "coordinates": [ 2.362856, 48.85699 ] } },
{ "type": "Feature", "properties": { "museum_id": "7511504", "name": "MUSÉE DE LA POSTE", "category": null, "theme": "Art moderne et contemporain, Ethnologie, Histoire, Technique et industrie", "category_filled": "Art", "mean_visitors": 48413.666666666664, "category_grouped": "Art", "exhibitions_within_500m": 4 }, "geometry": { "type": "Point", "coordinates": [ 2.317700895922453, 48.841560940626891 ] } },
{ "type": "Feature", "properties": { "museum_id": "7511615", "name": "MUSÉE D'ART MODERNE DE LA VILLE DE PARIS", "category": null, "theme": "Art moderne et contemporain", "category_filled": "Art", "mean_visitors": 488531.65, "category_grouped": "Art", "exhibitions_within_500m": 2 }, "geometry": { "type": "Point", "coordinates": [ 2.298432341953931, 48.864603220958784 ] } },
{ "type": "Feature", "properties": { "museum_id": "7511616", "name": "MAISON DE BALZAC", "category": "Maison musée. Musée littéraire. Maison des Illustres.", "theme": "Histoire, Littérature", "category_filled": "Maison musée. Musée littéraire. Maison des Illustres.", "mean_visitors": 28294.05, "category_grouped": "History", "exhibitions_within_500m": 0 }, "geometry": { "type": "Point", "coordinates": [ 2.280805, 48.855398 ] } },
{ "type": "Feature", "properties": { "museum_id": "7510306", "name": "MUSÉE COGNACQ-JAY, MUSÉE DU XVIIIE SIÈCLE DE LA VILLE DE PARIS", "category": null, "theme": "Arts décoratifs, Beaux-arts, Histoire", "category_filled": "Art", "mean_visitors": 48225.2, "category_grouped": "Art", "exhibitions_within_500m": 21 }, "geometry": { "type": "Point", "coordinates": [ 2.361524, 48.858257 ] } },
{ "type": "Feature", "properties": { "museum_id": "7511617", "name": "PALAIS GALLIERA, MUSÉE DE LA MODE DE LA VILLE DE PARIS", "category": "Musée de site", "theme": "Arts décoratifs", "category_filled": "Musée de site", "mean_visitors": 114648.33333333333, "category_grouped": "Art", "exhibitions_within_500m": 1 }, "geometry": { "type": "Point", "coordinates": [ 2.297248499625773, 48.866136805463356 ] } },
{ "type": "Feature", "properties": { "museum_id": "7510701", "name": "MUSÉE DE L'ARMÉE", "category": null, "theme": "Histoire, Technique et industrie, Militaria, Ethnologie, Afrique, Asie", "category_filled": "History", "mean_visitors": 1147429.6666666667, "category_grouped": "History", "exhibitions_within_500m": 0 }, "geometry": { "type": "Point", "coordinates": [ 2.312885, 48.858219 ] } },
{ "type": "Feature", "properties": { "museum_id": "7510705", "name": "MUSÉE D'ORSAY", "category": null, "theme": "Arts décoratifs, Beaux-Arts, Histoire", "category_filled": "Art", "mean_visitors": 1829574.0, "category_grouped": "Art", "exhibitions_within_500m": 1 }, "geometry": { "type": "Point", "coordinates": [ 2.323672, 48.859157 ] } },
{ "type": "Feature", "properties": { "museum_id": "7510508", "name": "MUSÉUM NATIONAL D’HISTOIRE NATURELLE", "category": null, "theme": "Sciences de la nature", "category_filled": "Science", "mean_visitors": 189363.0, "category_grouped": "Science", "exhibitions_within_500m": 3 }, "geometry": { "type": "Point", "coordinates": [ 2.359933, 48.842168 ] } },
{ "type": "Feature", "properties": { "museum_id": "7510807", "name": "MUSÉE CERNUSCHI, MUSÉE DES ARTS DE L’ASIE DE LA VILLE DE PARIS", "category": null, "theme": "Arts décoratifs, Beaux-arts, Ethnologie, Asie", "category_filled": "Art", "mean_visitors": 65414.84210526316, "category_grouped": "Art", "exhibitions_within_500m": 1 }, "geometry": { "type": "Point", "coordinates": [ 2.312194, 48.879693 ] } },
{ "type": "Feature", "properties": { "museum_id": "7511503", "name": "MUSÉE DU MARÉCHAL LECLERC DE HAUTECLOQUE ET DE LA LIBÉRATION DE PARIS - MUSÉE JEAN MOULIN", "category": null, "theme": "Histoire", "category_filled": "History", "mean_visitors": 11305.75, "category_grouped": "History", "exhibitions_within_500m": 7 }, "geometry": { "type": "Point", "coordinates": [ 2.319773, 48.840614 ] } },
{ "type": "Feature", "properties": { "museum_id": "7510702", "name": "MUSÉE DES PLANS-RELIEFS", "category": null, "theme": "Histoire, Technique et industrie", "category_filled": "History", "mean_visitors": 79881.333333333328, "category_grouped": "History", "exhibitions_within_500m": 0 }, "geometry": { "type": "Point", "coordinates": [ 2.312885, 48.858219 ] } },
{ "type": "Feature", "properties": { "museum_id": "7510706", "name": "MUSÉE NATIONAL DE LA LÉGION D'HONNEUR ET DES ORDRES DE CHEVALERIE", "category": null, "theme": "Histoire", "category_filled": "History", "mean_visitors": 43731.0, "category_grouped": "History", "exhibitions_within_500m": 1 }, "geometry": { "type": "Point", "coordinates": [ 2.324768, 48.860294 ] } }
]
}
